time,field.header.seq,field.header.stamp,field.header.frame_id,field.pose.pose.position.x,field.pose.pose.position.y,field.pose.pose.position.z,field.pose.pose.orientation.x,field.pose.pose.orientation.y,field.pose.pose.orientation.z,field.pose.pose.orientation.w,field.pose.covariance0,field.pose.covariance1,field.pose.covariance2,field.pose.covariance3,field.pose.covariance4,field.pose.covariance5,field.pose.covariance6,field.pose.covariance7,field.pose.covariance8,field.pose.covariance9,field.pose.covariance10,field.pose.covariance11,field.pose.covariance12,field.pose.covariance13,field.pose.covariance14,field.pose.covariance15,field.pose.covariance16,field.pose.covariance17,field.pose.covariance18,field.pose.covariance19,field.pose.covariance20,field.pose.covariance21,field.pose.covariance22,field.pose.covariance23,field.pose.covariance24,field.pose.covariance25,field.pose.covariance26,field.pose.covariance27,field.pose.covariance28,field.pose.covariance29,field.pose.covariance30,field.pose.covariance31,field.pose.covariance32,field.pose.covariance33,field.pose.covariance34,field.pose.covariance35
1720044840264795123,0,5341880000000,map,0.0,0.0,0.0,0.0,0.0,0.0,1.0,0.0,0.0,0.0,0.0,0.0,0.0,0.0,0.0,0.0,0.0,0.0,0.0,0.0,0.0,0.0,0.0,0.0,0.0,0.0,0.0,0.0,0.0,0.0,0.0,0.0,0.0,0.0,0.0,0.0,0.0,0.0,0.0,0.0,0.0,0.0,1.09467990228e-13
1720044850778396855,1,5356460000000,map,0.185462421776,0.0121972499364,0.0,0.0,0.0,0.104215889012,0.994554698585,0.000148912622591,9.83143314091e-06,0.0,0.0,0.0,0.0,9.83143314091e-06,2.86834848072e-06,0.0,0.0,0.0,0.0,0.0,0.0,0.0,0.0,0.0,0.0,0.0,0.0,0.0,0.0,0.0,0.0,0.0,0.0,0.0,0.0,0.0,0.0,0.0,0.0,0.0,0.0,0.0,0.000181236123464
1720044854328336875,2,5360040000000,map,0.440255930756,0.0838633594481,0.0,0.0,0.0,0.172543383285,0.985001919229,0.000444152161907,7.60957184086e-05,0.0,0.0,0.0,0.0,7.60957184086e-05,5.6261630366e-05,0.0,0.0,0.0,0.0,0.0,0.0,0.0,0.0,0.0,0.0,0.0,0.0,0.0,0.0,0.0,0.0,0.0,0.0,0.0,0.0,0.0,0.0,0.0,0.0,0.0,0.0,0.0,0.000583520179055
1720044854931149308,3,5360640000000,map,0.705395962887,0.147781464906,0.0,0.0,0.0,0.0941021484193,0.995562547338,0.000754776306028,8.28109596553e-05,0.0,0.0,0.0,0.0,8.28109596553e-05,0.000173204650793,0.0,0.0,0.0,0.0,0.0,0.0,0.0,0.0,0.0,0.0,0.0,0.0,0.0,0.0,0.0,0.0,0.0,0.0,0.0,0.0,0.0,0.0,0.0,0.0,0.0,0.0,0.0,0.00104760197885
1720044855224603800,4,5360920000000,map,0.965613700486,0.209039026921,0.0,0.0,0.0,0.123339184092,0.992364572961,0.00111512937802,8.91173969081e-05,0.0,0.0,0.0,0.0,8.91173969081e-05,0.000427959586208,0.0,0.0,0.0,0.0,0.0,0.0,0.0,0.0,0.0,0.0,0.0,0.0,0.0,0.0,0.0,0.0,0.0,0.0,0.0,0.0,0.0,0.0,0.0,0.0,0.0,0.0,0.0,0.00142789109694
1720044855492515652,5,5361200000000,map,1.23122171558,0.276986546765,0.0,0.0,0.0,0.123707173963,0.992318766884,0.00149178720493,-1.42775356648e-05,0.0,0.0,0.0,0.0,-1.42775356647e-05,0.000927349562109,0.0,0.0,0.0,0.0,0.0,0.0,0.0,0.0,0.0,0.0,0.0,0.0,0.0,0.0,0.0,0.0,0.0,0.0,0.0,0.0,0.0,0.0,0.0,0.0,0.0,0.0,0.0,0.00174911666227
1720044856527876424,6,5362220000000,map,1.48638183173,0.346247610028,0.0,0.0,0.0,0.0872114608745,0.996189821817,0.00190158854269,-0.000277344165925,0.0,0.0,0.0,0.0,-0.000277344165925,0.00153050059172,0.0,0.0,0.0,0.0,0.0,0.0,0.0,0.0,0.0,0.0,0.0,0.0,0.0,0.0,0.0,0.0,0.0,0.0,0.0,0.0,0.0,0.0,0.0,0.0,0.0,0.0,0.0,0.00197828966139
1720044857172768459,7,5362860000000,map,1.74247726813,0.366396421003,0.0,0.0,0.0,0.0117574863864,0.999930878368,0.00210250218061,-0.000334026158159,0.0,0.0,0.0,0.0,-0.000334026158159,0.00258410963356,0.0,0.0,0.0,0.0,0.0,0.0,0.0,0.0,0.0,0.0,0.0,0.0,0.0,0.0,0.0,0.0,0.0,0.0,0.0,0.0,0.0,0.0,0.0,0.0,0.0,0.0,0.0,0.00236733684582
1720044857431505438,8,5363140000000,map,2.00474846753,0.397361312159,0.0,0.0,0.0,0.064444476266,0.997921294231,0.002317037288,-0.00073433974236,0.0,0.0,0.0,0.0,-0.00073433974236,0.00395822415745,0.0,0.0,0.0,0.0,0.0,0.0,0.0,0.0,0.0,0.0,0.0,0.0,0.0,0.0,0.0,0.0,0.0,0.0,0.0,0.0,0.0,0.0,0.0,0.0,0.0,0.0,0.0,0.00263247509946
1720044857692823516,9,5363400000000,map,2.25683203516,0.430126059221,0.0,0.0,0.0,0.0623937292675,0.998051613168,0.00238787565715,-0.000834292039389,0.0,0.0,0.0,0.0,-0.000834292039389,0.00532338366858,0.0,0.0,0.0,0.0,0.0,0.0,0.0,0.0,0.0,0.0,0.0,0.0,0.0,0.0,0.0,0.0,0.0,0.0,0.0,0.0,0.0,0.0,0.0,0.0,0.0,0.0,0.0,0.00278647839075
1720044857951553136,10,5363660000000,map,2.50873229233,0.456160954541,0.0,0.0,0.0,0.0596465129185,0.998219561768,0.00295951885564,-0.00149445772726,0.0,0.0,0.0,0.0,-0.00149445772726,0.00777560014808,0.0,0.0,0.0,0.0,0.0,0.0,0.0,0.0,0.0,0.0,0.0,0.0,0.0,0.0,0.0,0.0,0.0,0.0,0.0,0.0,0.0,0.0,0.0,0.0,0.0,0.0,0.0,0.00303410377724
1720044858220801573,11,5363920000000,map,2.76085845722,0.49035246763,0.0,0.0,0.0,0.0612291830411,0.998123733384,0.00314767154344,-0.00182914931529,0.0,0.0,0.0,0.0,-0.00182914931529,0.0105533268336,0.0,0.0,0.0,0.0,0.0,0.0,0.0,0.0,0.0,0.0,0.0,0.0,0.0,0.0,0.0,0.0,0.0,0.0,0.0,0.0,0.0,0.0,0.0,0.0,0.0,0.0,0.0,0.00314203860893
1720044858471540460,12,5364180000000,map,3.0108846322,0.515745395129,0.0,0.0,0.0,0.058608807365,0.998281026415,0.00366501613073,-0.0025829776861,0.0,0.0,0.0,0.0,-0.0025829776861,0.0129594989876,0.0,0.0,0.0,0.0,0.0,0.0,0.0,0.0,0.0,0.0,0.0,0.0,0.0,0.0,0.0,0.0,0.0,0.0,0.0,0.0,0.0,0.0,0.0,0.0,0.0,0.0,0.0,0.00317649652317
1720044858780938672,13,5364440000000,map,3.26142191846,0.546964919328,0.0,0.0,0.0,0.0580100823289,0.998315997241,0.0036307165259,-0.00299774856259,0.0,0.0,0.0,0.0,-0.00299774856259,0.0163129414812,0.0,0.0,0.0,0.0,0.0,0.0,0.0,0.0,0.0,0.0,0.0,0.0,0.0,0.0,0.0,0.0,0.0,0.0,0.0,0.0,0.0,0.0,0.0,0.0,0.0,0.0,0.0,0.00349634754472
1720044859017870022,14,5364700000000,map,3.51207477402,0.586741700473,0.0,0.0,0.0,0.0601552908564,0.998189030686,0.00423769270123,-0.0039942094448,0.0,0.0,0.0,0.0,-0.0039942094448,0.020943812813,0.0,0.0,0.0,0.0,0.0,0.0,0.0,0.0,0.0,0.0,0.0,0.0,0.0,0.0,0.0,0.0,0.0,0.0,0.0,0.0,0.0,0.0,0.0,0.0,0.0,0.0,0.0,0.00396244886604
1720044859277672757,15,5364960000000,map,3.75956192823,0.629853413798,0.0,0.0,0.0,0.0622769567921,0.998058906404,0.00430591649723,-0.00422022425972,0.0,0.0,0.0,0.0,-0.00422022425972,0.0239349480417,0.0,0.0,0.0,0.0,0.0,0.0,0.0,0.0,0.0,0.0,0.0,0.0,0.0,0.0,0.0,0.0,0.0,0.0,0.0,0.0,0.0,0.0,0.0,0.0,0.0,0.0,0.0,0.00411963073732
1720044859540628304,16,5365220000000,map,4.00657716104,0.659610579424,0.0,0.0,0.0,0.0609657982772,0.998139855652,0.00469663420235,-0.00444965225512,0.0,0.0,0.0,0.0,-0.00444965225512,0.0235548968386,0.0,0.0,0.0,0.0,0.0,0.0,0.0,0.0,0.0,0.0,0.0,0.0,0.0,0.0,0.0,0.0,0.0,0.0,0.0,0.0,0.0,0.0,0.0,0.0,0.0,0.0,0.0,0.00376196603887
1720044859792805530,17,5365480000000,map,4.25728095107,0.687253474692,0.0,0.0,0.0,0.0607106753456,0.998155405685,0.00440359886796,-0.00548824660163,0.0,0.0,0.0,0.0,-0.00548824660163,0.0269808075219,0.0,0.0,0.0,0.0,0.0,0.0,0.0,0.0,0.0,0.0,0.0,0.0,0.0,0.0,0.0,0.0,0.0,0.0,0.0,0.0,0.0,0.0,0.0,0.0,0.0,0.0,0.0,0.00374015647121
1720044860040744907,18,5365740000000,map,4.50489409921,0.735035322385,0.0,0.0,0.0,0.065074510767,0.997880407688,0.00409539327106,-0.00552848790609,0.0,0.0,0.0,0.0,-0.00552848790609,0.0311781022275,0.0,0.0,0.0,0.0,0.0,0.0,0.0,0.0,0.0,0.0,0.0,0.0,0.0,0.0,0.0,0.0,0.0,0.0,0.0,0.0,0.0,0.0,0.0,0.0,0.0,0.0,0.0,0.00431525444861
1720044860304828922,19,5366000000000,map,4.75531130385,0.763529827463,0.0,0.0,0.0,0.0641815865945,0.997938236537,0.00447969501846,-0.00707302250558,0.0,0.0,0.0,0.0,-0.00707302250558,0.0367367890282,0.0,0.0,0.0,0.0,0.0,0.0,0.0,0.0,0.0,0.0,0.0,0.0,0.0,0.0,0.0,0.0,0.0,0.0,0.0,0.0,0.0,0.0,0.0,0.0,0.0,0.0,0.0,0.0045483372275
1720044860580745908,20,5366260000000,map,5.0041646233,0.794166657311,0.0,0.0,0.0,0.0634730565361,0.997983552517,0.00482015761537,-0.00792819849842,0.0,0.0,0.0,0.0,-0.00792819849842,0.0424519773258,0.0,0.0,0.0,0.0,0.0,0.0,0.0,0.0,0.0,0.0,0.0,0.0,0.0,0.0,0.0,0.0,0.0,0.0,0.0,0.0,0.0,0.0,0.0,0.0,0.0,0.0,0.0,0.00481632862278
1720044860808611977,21,5366520000000,map,5.25965475941,0.821218124382,0.0,0.0,0.0,0.062236767295,0.998061413339,0.00521070114467,-0.00873608358013,0.0,0.0,0.0,0.0,-0.00873608358013,0.0461818158145,0.0,0.0,0.0,0.0,0.0,0.0,0.0,0.0,0.0,0.0,0.0,0.0,0.0,0.0,0.0,0.0,0.0,0.0,0.0,0.0,0.0,0.0,0.0,0.0,0.0,0.0,0.0,0.0045933580565
1720044861168492269,22,5366840000000,map,5.52410263938,0.862529235075,0.0,0.0,0.0,0.0721133227336,0.997396445093,0.00579006580145,-0.00906674788014,0.0,0.0,0.0,0.0,-0.00906674788014,0.0444350301262,0.0,0.0,0.0,0.0,0.0,0.0,0.0,0.0,0.0,0.0,0.0,0.0,0.0,0.0,0.0,0.0,0.0,0.0,0.0,0.0,0.0,0.0,0.0,0.0,0.0,0.0,0.0,0.00407057807575
1720044861551020624,23,5367260000000,map,5.7702228116,0.925125673634,0.0,0.0,0.0,0.0657252179742,0.997837760221,0.00618692226116,-0.00999524514101,0.0,0.0,0.0,0.0,-0.00999524514101,0.0488510382974,0.0,0.0,0.0,0.0,0.0,0.0,0.0,0.0,0.0,0.0,0.0,0.0,0.0,0.0,0.0,0.0,0.0,0.0,0.0,0.0,0.0,0.0,0.0,0.0,0.0,0.0,0.0,0.00380107814226
1720044861892614323,24,5367580000000,map,6.03754657187,0.9525417395,0.0,0.0,0.0,0.0147305212335,0.999891499986,0.00628316692104,-0.0109340907965,0.0,0.0,0.0,0.0,-0.0109340907965,0.055040624559,0.0,0.0,0.0,0.0,0.0,0.0,0.0,0.0,0.0,0.0,0.0,0.0,0.0,0.0,0.0,0.0,0.0,0.0,0.0,0.0,0.0,0.0,0.0,0.0,0.0,0.0,0.0,0.00385243825641
1720044862096624669,25,5367780000000,map,6.22196395199,0.938470134167,0.0,0.0,0.0,-0.0967793287496,0.995305863304,0.00684787946223,-0.0108945561218,0.0,0.0,0.0,0.0,-0.0108945561218,0.0554325119555,0.0,0.0,0.0,0.0,0.0,0.0,0.0,0.0,0.0,0.0,0.0,0.0,0.0,0.0,0.0,0.0,0.0,0.0,0.0,0.0,0.0,0.0,0.0,0.0,0.0,0.0,0.0,0.00355871413558
1720044862232433887,26,5367940000000,map,6.3260722028,0.906828419951,0.0,0.0,0.0,-0.200101315138,0.979775210791,0.00593716936123,-0.00939337116948,0.0,0.0,0.0,0.0,-0.00939337116948,0.0540817881296,0.0,0.0,0.0,0.0,0.0,0.0,0.0,0.0,0.0,0.0,0.0,0.0,0.0,0.0,0.0,0.0,0.0,0.0,0.0,0.0,0.0,0.0,0.0,0.0,0.0,0.0,0.0,0.00317243591381
1720044862388371517,27,5368080000000,map,6.44629763104,0.81932779358,0.0,0.0,0.0,-0.30099114259,0.953626935485,0.00588538510565,-0.00945731190108,0.0,0.0,0.0,0.0,-0.00945731190108,0.0594186832867,0.0,0.0,0.0,0.0,0.0,0.0,0.0,0.0,0.0,0.0,0.0,0.0,0.0,0.0,0.0,0.0,0.0,0.0,0.0,0.0,0.0,0.0,0.0,0.0,0.0,0.0,0.0,0.00334938756914
1720044862527307830,28,5368220000000,map,6.53462039497,0.740668377994,0.0,0.0,0.0,-0.40305967957,0.915173696467,0.00574890519772,-0.00944692129458,0.0,0.0,0.0,0.0,-0.00944692129458,0.0642106156492,0.0,0.0,0.0,0.0,0.0,0.0,0.0,0.0,0.0,0.0,0.0,0.0,0.0,0.0,0.0,0.0,0.0,0.0,0.0,0.0,0.0,0.0,0.0,0.0,0.0,0.0,0.0,0.00307020000183
1720044862836250394,29,5368540000000,map,6.62436446137,0.630498553675,0.0,0.0,0.0,-0.498730648478,0.866757024932,0.00539358843395,-0.00801967480426,0.0,0.0,0.0,0.0,-0.00801967480426,0.0769665018899,0.0,0.0,0.0,0.0,0.0,0.0,0.0,0.0,0.0,0.0,0.0,0.0,0.0,0.0,0.0,0.0,0.0,0.0,0.0,0.0,0.0,0.0,0.0,0.0,0.0,0.0,0.0,0.00408998480034
1720044862988182823,30,5368700000000,map,6.68965738681,0.457525098353,0.0,0.0,0.0,-0.589844942271,0.807516528672,0.00485954933642,-0.00562528965561,0.0,0.0,0.0,0.0,-0.00562528965561,0.0693708942619,0.0,0.0,0.0,0.0,0.0,0.0,0.0,0.0,0.0,0.0,0.0,0.0,0.0,0.0,0.0,0.0,0.0,0.0,0.0,0.0,0.0,0.0,0.0,0.0,0.0,0.0,0.0,0.00390118372307
1720044863130394980,31,5368840000000,map,6.71392789613,0.338420961198,0.0,0.0,0.0,-0.675486098798,0.737372721444,0.00490999736435,-0.00392848493582,0.0,0.0,0.0,0.0,-0.00392848493582,0.0685096302224,0.0,0.0,0.0,0.0,0.0,0.0,0.0,0.0,0.0,0.0,0.0,0.0,0.0,0.0,0.0,0.0,0.0,0.0,0.0,0.0,0.0,0.0,0.0,0.0,0.0,0.0,0.0,0.00382402120095
1720044863250580512,32,5368960000000,map,6.70988135986,0.23189349856,0.0,0.0,0.0,-0.745966666731,0.665983282167,0.00492728625941,-0.00237286474153,0.0,0.0,0.0,0.0,-0.00237286474153,0.0687866274824,0.0,0.0,0.0,0.0,0.0,0.0,0.0,0.0,0.0,0.0,0.0,0.0,0.0,0.0,0.0,0.0,0.0,0.0,0.0,0.0,0.0,0.0,0.0,0.0,0.0,0.0,0.0,0.00362459421171
1720044863371830779,33,5369080000000,map,6.69290304608,0.126275897715,0.0,0.0,0.0,-0.811230896717,0.584725946245,0.0043799181212,-0.00105576226801,0.0,0.0,0.0,0.0,-0.00105576226801,0.0657384097995,0.0,0.0,0.0,0.0,0.0,0.0,0.0,0.0,0.0,0.0,0.0,0.0,0.0,0.0,0.0,0.0,0.0,0.0,0.0,0.0,0.0,0.0,0.0,0.0,0.0,0.0,0.0,0.00328251485161
1720044863552356759,34,5369240000000,map,6.65947042671,0.0513833119397,0.0,0.0,0.0,-0.867923317233,0.49669821361,0.00411620974993,-0.000739864376753,0.0,0.0,0.0,0.0,-0.000739864376753,0.0616561863312,0.0,0.0,0.0,0.0,0.0,0.0,0.0,0.0,0.0,0.0,0.0,0.0,0.0,0.0,0.0,0.0,0.0,0.0,0.0,0.0,0.0,0.0,0.0,0.0,0.0,0.0,0.0,0.00307599739307
1720044863807577243,35,5369500000000,map,6.5841929401,-0.0333765927229,0.0,0.0,0.0,-0.91265162925,0.408738307022,0.00382888200749,0.00152063850812,0.0,0.0,0.0,0.0,0.00152063850812,0.0685336369251,0.0,0.0,0.0,0.0,0.0,0.0,0.0,0.0,0.0,0.0,0.0,0.0,0.0,0.0,0.0,0.0,0.0,0.0,0.0,0.0,0.0,0.0,0.0,0.0,0.0,0.0,0.0,0.00335099070806
1720044863979882696,36,5369680000000,map,6.49225111689,-0.0796098241118,0.0,0.0,0.0,-0.947518875124,0.319699829973,0.00448291430484,0.0050557582174,0.0,0.0,0.0,0.0,0.0050557582174,0.0722628004773,0.0,0.0,0.0,0.0,0.0,0.0,0.0,0.0,0.0,0.0,0.0,0.0,0.0,0.0,0.0,0.0,0.0,0.0,0.0,0.0,0.0,0.0,0.0,0.0,0.0,0.0,0.0,0.00420022603595
1720044864267982185,37,5369960000000,map,6.27188837747,-0.20361021945,0.0,0.0,0.0,-0.97487627308,0.222747058757,0.00533212085062,0.00539134693136,0.0,0.0,0.0,0.0,0.00539134693136,0.0618901003463,0.0,0.0,0.0,0.0,0.0,0.0,0.0,0.0,0.0,0.0,0.0,0.0,0.0,0.0,0.0,0.0,0.0,0.0,0.0,0.0,0.0,0.0,0.0,0.0,0.0,0.0,0.0,0.00410020847919
1720044864746967947,38,5370440000000,map,6.00948129449,-0.326812385016,0.0,0.0,0.0,-0.979155487429,0.203112115436,0.00590651891263,0.00498519729282,0.0,0.0,0.0,0.0,0.00498519729282,0.0499381195404,0.0,0.0,0.0,0.0,0.0,0.0,0.0,0.0,0.0,0.0,0.0,0.0,0.0,0.0,0.0,0.0,0.0,0.0,0.0,0.0,0.0,0.0,0.0,0.0,0.0,0.0,0.0,0.00424010793798
1720044865227149047,39,5370920000000,map,5.75681847786,-0.41917507667,0.0,0.0,0.0,-0.979284788238,0.202487786115,0.00699630424854,0.00476935455271,0.0,0.0,0.0,0.0,0.00476935455271,0.0495473805513,0.0,0.0,0.0,0.0,0.0,0.0,0.0,0.0,0.0,0.0,0.0,0.0,0.0,0.0,0.0,0.0,0.0,0.0,0.0,0.0,0.0,0.0,0.0,0.0,0.0,0.0,0.0,0.00466305793538
1720044865491998397,40,5371200000000,map,5.50085232752,-0.521869530834,0.0,0.0,0.0,-0.980554314205,0.196247896534,0.00771682497086,0.00336443921138,0.0,0.0,0.0,0.0,0.00336443921138,0.0459100338813,0.0,0.0,0.0,0.0,0.0,0.0,0.0,0.0,0.0,0.0,0.0,0.0,0.0,0.0,0.0,0.0,0.0,0.0,0.0,0.0,0.0,0.0,0.0,0.0,0.0,0.0,0.0,0.00489892982151
1720044865779845488,41,5371480000000,map,5.24640438823,-0.615909281649,0.0,0.0,0.0,-0.981000338124,0.194006022075,0.00824561277682,0.00264539478021,0.0,0.0,0.0,0.0,0.00264539478021,0.0400269046733,0.0,0.0,0.0,0.0,0.0,0.0,0.0,0.0,0.0,0.0,0.0,0.0,0.0,0.0,0.0,0.0,0.0,0.0,0.0,0.0,0.0,0.0,0.0,0.0,0.0,0.0,0.0,0.00539570241725
1720044866050319742,42,5371760000000,map,4.99260778434,-0.722623474701,0.0,0.0,0.0,-0.981154729421,0.193223696621,0.00781360085387,0.000831665899252,0.0,0.0,0.0,0.0,0.000831665899252,0.0380187492811,0.0,0.0,0.0,0.0,0.0,0.0,0.0,0.0,0.0,0.0,0.0,0.0,0.0,0.0,0.0,0.0,0.0,0.0,0.0,0.0,0.0,0.0,0.0,0.0,0.0,0.0,0.0,0.00503396794168
1720044866355968317,43,5372040000000,map,4.73799607183,-0.82188743696,0.0,0.0,0.0,-0.981401866992,0.191964516159,0.00803981179236,0.00128125112357,0.0,0.0,0.0,0.0,0.00128125112357,0.0376909546198,0.0,0.0,0.0,0.0,0.0,0.0,0.0,0.0,0.0,0.0,0.0,0.0,0.0,0.0,0.0,0.0,0.0,0.0,0.0,0.0,0.0,0.0,0.0,0.0,0.0,0.0,0.0,0.00481051324344
1720044866610422937,44,5372320000000,map,4.47774826599,-0.927632588335,0.0,0.0,0.0,-0.981420295328,0.191870278881,0.00841844138113,9.08582583063e-05,0.0,0.0,0.0,0.0,9.08582583063e-05,0.0441005979714,0.0,0.0,0.0,0.0,0.0,0.0,0.0,0.0,0.0,0.0,0.0,0.0,0.0,0.0,0.0,0.0,0.0,0.0,0.0,0.0,0.0,0.0,0.0,0.0,0.0,0.0,0.0,0.00481988751866
1720044866916033111,45,5372600000000,map,4.22427427459,-1.03027218081,0.0,0.0,0.0,-0.981098918682,0.193506877814,0.00988978400081,7.3348362803e-05,0.0,0.0,0.0,0.0,7.33483628022e-05,0.0444761839678,0.0,0.0,0.0,0.0,0.0,0.0,0.0,0.0,0.0,0.0,0.0,0.0,0.0,0.0,0.0,0.0,0.0,0.0,0.0,0.0,0.0,0.0,0.0,0.0,0.0,0.0,0.0,0.00550655342532
1720044867171345051,46,5372880000000,map,3.97490636647,-1.14546155416,0.0,0.0,0.0,-0.980540741629,0.196315699846,0.0135112614368,-0.00130842482626,0.0,0.0,0.0,0.0,-0.00130842482626,0.0453700079812,0.0,0.0,0.0,0.0,0.0,0.0,0.0,0.0,0.0,0.0,0.0,0.0,0.0,0.0,0.0,0.0,0.0,0.0,0.0,0.0,0.0,0.0,0.0,0.0,0.0,0.0,0.0,0.00651195296399
1720044867468432342,47,5373160000000,map,3.71635803213,-1.26169284532,0.0,0.0,0.0,-0.981144844019,0.193273886118,0.0105946783827,-0.00483147291842,0.0,0.0,0.0,0.0,-0.00483147291842,0.0496355697941,0.0,0.0,0.0,0.0,0.0,0.0,0.0,0.0,0.0,0.0,0.0,0.0,0.0,0.0,0.0,0.0,0.0,0.0,0.0,0.0,0.0,0.0,0.0,0.0,0.0,0.0,0.0,0.00645783153158
1720044867760010407,48,5373440000000,map,3.46702903986,-1.36779686022,0.0,0.0,0.0,-0.980659932391,0.195719434402,0.0121826398958,-0.00629310133456,0.0,0.0,0.0,0.0,-0.00629310133456,0.0515474064853,0.0,0.0,0.0,0.0,0.0,0.0,0.0,0.0,0.0,0.0,0.0,0.0,0.0,0.0,0.0,0.0,0.0,0.0,0.0,0.0,0.0,0.0,0.0,0.0,0.0,0.0,0.0,0.00674887313669
1720044868024255844,49,5373720000000,map,3.21850585826,-1.47542924136,0.0,0.0,0.0,-0.979830203051,0.199831862298,0.0139880462774,-0.00808474642842,0.0,0.0,0.0,0.0,-0.00808474642842,0.051141687276,0.0,0.0,0.0,0.0,0.0,0.0,0.0,0.0,0.0,0.0,0.0,0.0,0.0,0.0,0.0,0.0,0.0,0.0,0.0,0.0,0.0,0.0,0.0,0.0,0.0,0.0,0.0,0.00631517600107
1720044868319954692,50,5374000000000,map,2.9666586992,-1.59683288996,0.0,0.0,0.0,-0.979651456026,0.200706314565,0.0133501791049,-0.0104117022855,0.0,0.0,0.0,0.0,-0.0104117022855,0.0479284872459,0.0,0.0,0.0,0.0,0.0,0.0,0.0,0.0,0.0,0.0,0.0,0.0,0.0,0.0,0.0,0.0,0.0,0.0,0.0,0.0,0.0,0.0,0.0,0.0,0.0,0.0,0.0,0.00579287966172
1720044868567690095,51,5374280000000,map,2.70588391423,-1.70257889199,0.0,0.0,0.0,-0.979928723499,0.19934817998,0.0133104623963,-0.0136525135994,0.0,0.0,0.0,0.0,-0.0136525135994,0.0530567551613,0.0,0.0,0.0,0.0,0.0,0.0,0.0,0.0,0.0,0.0,0.0,0.0,0.0,0.0,0.0,0.0,0.0,0.0,0.0,0.0,0.0,0.0,0.0,0.0,0.0,0.0,0.0,0.00564085203018
1720044868879828713,52,5374560000000,map,2.45446584835,-1.8140852686,0.0,0.0,0.0,-0.984561692287,0.175037921835,0.0153207299149,-0.0168494466979,0.0,0.0,0.0,0.0,-0.0168494466979,0.0550346706139,0.0,0.0,0.0,0.0,0.0,0.0,0.0,0.0,0.0,0.0,0.0,0.0,0.0,0.0,0.0,0.0,0.0,0.0,0.0,0.0,0.0,0.0,0.0,0.0,0.0,0.0,0.0,0.00547960264258
1720044869332372584,53,5374980000000,map,2.17810940863,-1.8896648415,0.0,0.0,0.0,-0.991004411798,0.133829203827,0.0161975244168,-0.0183716946119,0.0,0.0,0.0,0.0,-0.0183716946119,0.0597189726092,0.0,0.0,0.0,0.0,0.0,0.0,0.0,0.0,0.0,0.0,0.0,0.0,0.0,0.0,0.0,0.0,0.0,0.0,0.0,0.0,0.0,0.0,0.0,0.0,0.0,0.0,0.0,0.006242037615
1720044869600145865,54,5375280000000,map,1.91783057061,-1.9212125763,0.0,0.0,0.0,-0.999593692061,0.0285035224489,0.0160559861458,-0.0200109257465,0.0,0.0,0.0,0.0,-0.0200109257465,0.0673194615257,0.0,0.0,0.0,0.0,0.0,0.0,0.0,0.0,0.0,0.0,0.0,0.0,0.0,0.0,0.0,0.0,0.0,0.0,0.0,0.0,0.0,0.0,0.0,0.0,0.0,0.0,0.0,0.0060213378326
1720044869931296230,55,5375640000000,map,1.65902642282,-1.89143963961,0.0,0.0,0.0,0.997647777177,0.0685486155569,0.0159375445581,-0.0211385264997,0.0,0.0,0.0,0.0,-0.0211385264997,0.0704975444055,0.0,0.0,0.0,0.0,0.0,0.0,0.0,0.0,0.0,0.0,0.0,0.0,0.0,0.0,0.0,0.0,0.0,0.0,0.0,0.0,0.0,0.0,0.0,0.0,0.0,0.0,0.0,0.00634378997686
1720044871129508223,56,5376820000000,map,1.40152817145,-1.84960237898,0.0,0.0,0.0,0.997691391215,0.0679108820164,0.015848489783,-0.0208684093258,0.0,0.0,0.0,0.0,-0.0208684093258,0.0676184103843,0.0,0.0,0.0,0.0,0.0,0.0,0.0,0.0,0.0,0.0,0.0,0.0,0.0,0.0,0.0,0.0,0.0,0.0,0.0,0.0,0.0,0.0,0.0,0.0,0.0,0.0,0.0,0.00577491738125
1720044871753598437,57,5377420000000,map,1.14698375675,-1.84860574562,0.0,0.0,0.0,0.999643158512,0.0267124622519,0.0168735962809,-0.022115811505,0.0,0.0,0.0,0.0,-0.022115811505,0.0681888903951,0.0,0.0,0.0,0.0,0.0,0.0,0.0,0.0,0.0,0.0,0.0,0.0,0.0,0.0,0.0,0.0,0.0,0.0,0.0,0.0,0.0,0.0,0.0,0.0,0.0,0.0,0.0,0.00603384363355
1720044872081807348,58,5377760000000,map,0.898379700255,-1.84826349103,0.0,0.0,0.0,0.999909148833,0.013479394671,0.0154360511031,-0.0218893506859,0.0,0.0,0.0,0.0,-0.0218893506859,0.073041786898,0.0,0.0,0.0,0.0,0.0,0.0,0.0,0.0,0.0,0.0,0.0,0.0,0.0,0.0,0.0,0.0,0.0,0.0,0.0,0.0,0.0,0.0,0.0,0.0,0.0,0.0,0.0,0.0067912561884
1720044872432025641,59,5378140000000,map,0.637697122032,-1.81842276012,0.0,0.0,0.0,0.998294791093,0.0583738817998,0.0165570608066,-0.0242246672693,0.0,0.0,0.0,0.0,-0.0242246672693,0.0799649288695,0.0,0.0,0.0,0.0,0.0,0.0,0.0,0.0,0.0,0.0,0.0,0.0,0.0,0.0,0.0,0.0,0.0,0.0,0.0,0.0,0.0,0.0,0.0,0.0,0.0,0.0,0.0,0.00725994791962
1720044872689398365,60,5378400000000,map,0.38491613717,-1.78040957471,0.0,0.0,0.0,0.997366180651,0.072530694833,0.0153071304792,-0.0221146442627,0.0,0.0,0.0,0.0,-0.0221146442627,0.079375911198,0.0,0.0,0.0,0.0,0.0,0.0,0.0,0.0,0.0,0.0,0.0,0.0,0.0,0.0,0.0,0.0,0.0,0.0,0.0,0.0,0.0,0.0,0.0,0.0,0.0,0.0,0.0,0.00738145339627
1720044872953779919,61,5378660000000,map,0.143638488531,-1.78088467615,0.0,0.0,0.0,0.997528365015,0.0702649342925,0.0164849875644,-0.0227529981367,0.0,0.0,0.0,0.0,-0.0227529981367,0.0849062740295,0.0,0.0,0.0,0.0,0.0,0.0,0.0,0.0,0.0,0.0,0.0,0.0,0.0,0.0,0.0,0.0,0.0,0.0,0.0,0.0,0.0,0.0,0.0,0.0,0.0,0.0,0.0,0.00830307851888
1720044873238639351,62,5378920000000,map,-0.104435546445,-1.75868215311,0.0,0.0,0.0,0.997414320123,0.0718656664479,0.0162278180737,-0.0215150326557,0.0,0.0,0.0,0.0,-0.0215150326557,0.0878174438369,0.0,0.0,0.0,0.0,0.0,0.0,0.0,0.0,0.0,0.0,0.0,0.0,0.0,0.0,0.0,0.0,0.0,0.0,0.0,0.0,0.0,0.0,0.0,0.0,0.0,0.0,0.0,0.00865023302577
1720044873501564161,63,5379180000000,map,-0.351953402314,-1.72264195581,0.0,0.0,0.0,0.99753600433,0.0701563971787,0.0159505297879,-0.0220676922747,0.0,0.0,0.0,0.0,-0.0220676922747,0.0880706816216,0.0,0.0,0.0,0.0,0.0,0.0,0.0,0.0,0.0,0.0,0.0,0.0,0.0,0.0,0.0,0.0,0.0,0.0,0.0,0.0,0.0,0.0,0.0,0.0,0.0,0.0,0.0,0.00833471231358
1720044873741710809,64,5379440000000,map,-0.600997777624,-1.71088026077,0.0,0.0,0.0,-0.999949146172,0.0100848931869,0.0157958368941,-0.0196439125423,0.0,0.0,0.0,0.0,-0.0196439125423,0.0865196721646,0.0,0.0,0.0,0.0,0.0,0.0,0.0,0.0,0.0,0.0,0.0,0.0,0.0,0.0,0.0,0.0,0.0,0.0,0.0,0.0,0.0,0.0,0.0,0.0,0.0,0.0,0.0,0.00877094523925
1720044873892172556,65,5379600000000,map,-0.707443077223,-1.71758728538,0.0,0.0,0.0,-0.993276244976,0.115768308122,0.0145392117354,-0.0180869945903,0.0,0.0,0.0,0.0,-0.0180869945903,0.0878545146987,0.0,0.0,0.0,0.0,0.0,0.0,0.0,0.0,0.0,0.0,0.0,0.0,0.0,0.0,0.0,0.0,0.0,0.0,0.0,0.0,0.0,0.0,0.0,0.0,0.0,0.0,0.0,0.00899237819678
1720044874098210889,66,5379800000000,map,-0.770133131718,-1.77283919524,0.0,0.0,0.0,-0.974095374502,0.226137571786,0.0129765561191,-0.0144126783692,0.0,0.0,0.0,0.0,-0.0144126783692,0.0795920499249,0.0,0.0,0.0,0.0,0.0,0.0,0.0,0.0,0.0,0.0,0.0,0.0,0.0,0.0,0.0,0.0,0.0,0.0,0.0,0.0,0.0,0.0,0.0,0.0,0.0,0.0,0.0,0.00868675583193
1720044874430057838,67,5380140000000,map,-1.01105764288,-1.91714197905,0.0,0.0,0.0,-0.960445552386,0.278467845365,0.0145141468676,-0.0181391921078,0.0,0.0,0.0,0.0,-0.0181391921078,0.084748879388,0.0,0.0,0.0,0.0,0.0,0.0,0.0,0.0,0.0,0.0,0.0,0.0,0.0,0.0,0.0,0.0,0.0,0.0,0.0,0.0,0.0,0.0,0.0,0.0,0.0,0.0,0.0,0.010290284313
1720044874941476724,68,5380640000000,map,-1.26457752744,-2.13116464117,0.0,0.0,0.0,-0.9483694261,0.317167828821,0.01543785305,-0.0204804766488,0.0,0.0,0.0,0.0,-0.0204804766488,0.0864117745415,0.0,0.0,0.0,0.0,0.0,0.0,0.0,0.0,0.0,0.0,0.0,0.0,0.0,0.0,0.0,0.0,0.0,0.0,0.0,0.0,0.0,0.0,0.0,0.0,0.0,0.0,0.0,0.0100827266866
1720044875250733228,69,5380960000000,map,-1.51591639108,-2.31970856737,0.0,0.0,0.0,-0.949112133961,0.314938338677,0.0182779008029,-0.0259819335713,0.0,0.0,0.0,0.0,-0.0259819335713,0.0890410298358,0.0,0.0,0.0,0.0,0.0,0.0,0.0,0.0,0.0,0.0,0.0,0.0,0.0,0.0,0.0,0.0,0.0,0.0,0.0,0.0,0.0,0.0,0.0,0.0,0.0,0.0,0.0,0.0103837734187
1720044875596477658,70,5381280000000,map,-1.76594189809,-2.50347516641,0.0,0.0,0.0,-0.948995599404,0.315289315251,0.0213282125063,-0.0307255781923,0.0,0.0,0.0,0.0,-0.0307255781923,0.0948386544952,0.0,0.0,0.0,0.0,0.0,0.0,0.0,0.0,0.0,0.0,0.0,0.0,0.0,0.0,0.0,0.0,0.0,0.0,0.0,0.0,0.0,0.0,0.0,0.0,0.0,0.0,0.0,0.011937387782
1720044875890670841,71,5381600000000,map,-2.01577655779,-2.6871470949,0.0,0.0,0.0,-0.948913793333,0.3155354383,0.0264231549188,-0.0403284007318,0.0,0.0,0.0,0.0,-0.0403284007318,0.109587266111,0.0,0.0,0.0,0.0,0.0,0.0,0.0,0.0,0.0,0.0,0.0,0.0,0.0,0.0,0.0,0.0,0.0,0.0,0.0,0.0,0.0,0.0,0.0,0.0,0.0,0.0,0.0,0.0129342703635
1720044876228483470,72,5381920000000,map,-2.26967555313,-2.86881853334,0.0,0.0,0.0,-0.975165881282,0.221475741298,0.0288589788099,-0.0444678239128,0.0,0.0,0.0,0.0,-0.0444678239128,0.124178450566,0.0,0.0,0.0,0.0,0.0,0.0,0.0,0.0,0.0,0.0,0.0,0.0,0.0,0.0,0.0,0.0,0.0,0.0,0.0,0.0,0.0,0.0,0.0,0.0,0.0,0.0,0.0,0.0136813527103
1720044876700663853,73,5382400000000,map,-2.5312622826,-2.98462059001,0.0,0.0,0.0,-0.990259400532,0.139234764543,0.033029955915,-0.0541053258213,0.0,0.0,0.0,0.0,-0.0541053258213,0.14942366515,0.0,0.0,0.0,0.0,0.0,0.0,0.0,0.0,0.0,0.0,0.0,0.0,0.0,0.0,0.0,0.0,0.0,0.0,0.0,0.0,0.0,0.0,0.0,0.0,0.0,0.0,0.0,0.014885163565
1720044877051137806,74,5382760000000,map,-2.78795032174,-3.04892472096,0.0,0.0,0.0,-0.990871700195,0.134808285176,0.0359811346006,-0.0611566559018,0.0,0.0,0.0,0.0,-0.0611566559018,0.171971060751,0.0,0.0,0.0,0.0,0.0,0.0,0.0,0.0,0.0,0.0,0.0,0.0,0.0,0.0,0.0,0.0,0.0,0.0,0.0,0.0,0.0,0.0,0.0,0.0,0.0,0.0,0.0,0.0149559534755
1720044877348526387,75,5383040000000,map,-3.02197007204,-3.10755243169,0.0,0.0,0.0,-0.999681717942,0.0252282145946,0.0348152549884,-0.0610647184759,0.0,0.0,0.0,0.0,-0.0610647184759,0.16342538006,0.0,0.0,0.0,0.0,0.0,0.0,0.0,0.0,0.0,0.0,0.0,0.0,0.0,0.0,0.0,0.0,0.0,0.0,0.0,0.0,0.0,0.0,0.0,0.0,0.0,0.0,0.0,0.0148257020162
1720044877656597572,76,5383340000000,map,-3.24877089765,-3.11707259854,0.0,0.0,0.0,0.999507690866,0.0313747653329,0.0327085149506,-0.0603987139751,0.0,0.0,0.0,0.0,-0.0603987139751,0.174151021746,0.0,0.0,0.0,0.0,0.0,0.0,0.0,0.0,0.0,0.0,0.0,0.0,0.0,0.0,0.0,0.0,0.0,0.0,0.0,0.0,0.0,0.0,0.0,0.0,0.0,0.0,0.0,0.015320698641
1720044878120270246,77,5383800000000,map,-3.51520301419,-3.10411200142,0.0,0.0,0.0,0.997439470838,0.0715157466191,0.0284883261638,-0.0545445459272,0.0,0.0,0.0,0.0,-0.0545445459272,0.17233862041,0.0,0.0,0.0,0.0,0.0,0.0,0.0,0.0,0.0,0.0,0.0,0.0,0.0,0.0,0.0,0.0,0.0,0.0,0.0,0.0,0.0,0.0,0.0,0.0,0.0,0.0,0.0,0.0138810878712
1720044878368568168,78,5384080000000,map,-3.76933776214,-3.08076700582,0.0,0.0,0.0,0.99674783701,0.080583803683,0.0245459238966,-0.0504347965245,0.0,0.0,0.0,0.0,-0.0504347965245,0.183832327132,0.0,0.0,0.0,0.0,0.0,0.0,0.0,0.0,0.0,0.0,0.0,0.0,0.0,0.0,0.0,0.0,0.0,0.0,0.0,0.0,0.0,0.0,0.0,0.0,0.0,0.0,0.0,0.013670309881
1720044878676370383,79,5384380000000,map,-4.02757338764,-2.99114977085,0.0,0.0,0.0,0.985566236896,0.169290261654,0.0231237601591,-0.0502029814881,0.0,0.0,0.0,0.0,-0.0502029814881,0.210007442188,0.0,0.0,0.0,0.0,0.0,0.0,0.0,0.0,0.0,0.0,0.0,0.0,0.0,0.0,0.0,0.0,0.0,0.0,0.0,0.0,0.0,0.0,0.0,0.0,0.0,0.0,0.0,0.0143608799006
1720044879070862425,80,5384780000000,map,-4.28250140301,-2.85802376502,0.0,0.0,0.0,0.963321984151,0.268348197034,0.0207398404178,-0.0499794757113,0.0,0.0,0.0,0.0,-0.0499794757113,0.25925417145,0.0,0.0,0.0,0.0,0.0,0.0,0.0,0.0,0.0,0.0,0.0,0.0,0.0,0.0,0.0,0.0,0.0,0.0,0.0,0.0,0.0,0.0,0.0,0.0,0.0,0.0,0.0,0.0166068094442
1720044879412174566,81,5385100000000,map,-4.53184571619,-2.6893429035,0.0,0.0,0.0,0.945472281192,0.325702572137,0.0201213249757,-0.043633257862,0.0,0.0,0.0,0.0,-0.043633257862,0.284131747548,0.0,0.0,0.0,0.0,0.0,0.0,0.0,0.0,0.0,0.0,0.0,0.0,0.0,0.0,0.0,0.0,0.0,0.0,0.0,0.0,0.0,0.0,0.0,0.0,0.0,0.0,0.0,0.0163542411779
1720044879657469480,82,5385360000000,map,-4.69645803215,-2.5231696457,0.0,0.0,0.0,0.90812182281,0.418706048363,0.0178031682643,-0.0323509903748,0.0,0.0,0.0,0.0,-0.0323509903748,0.307395260158,0.0,0.0,0.0,0.0,0.0,0.0,0.0,0.0,0.0,0.0,0.0,0.0,0.0,0.0,0.0,0.0,0.0,0.0,0.0,0.0,0.0,0.0,0.0,0.0,0.0,0.0,0.0,0.016496073099
1720044880177366956,83,5385880000000,map,-4.90828964754,-2.31434265967,0.0,0.0,0.0,0.902072830312,0.431583837526,0.0167069684269,-0.0133320503608,0.0,0.0,0.0,0.0,-0.0133320503608,0.300509422642,0.0,0.0,0.0,0.0,0.0,0.0,0.0,0.0,0.0,0.0,0.0,0.0,0.0,0.0,0.0,0.0,0.0,0.0,0.0,0.0,0.0,0.0,0.0,0.0,0.0,0.0,0.0,0.0161087862139
1720044880704259742,84,5386380000000,map,-5.07643369624,-2.10281642623,0.0,0.0,0.0,0.873814802411,0.486258872503,0.0186953784985,0.00419221618726,0.0,0.0,0.0,0.0,0.00419221618726,0.309227827868,0.0,0.0,0.0,0.0,0.0,0.0,0.0,0.0,0.0,0.0,0.0,0.0,0.0,0.0,0.0,0.0,0.0,0.0,0.0,0.0,0.0,0.0,0.0,0.0,0.0,0.0,0.0,0.0169260678893
1720044880908198264,85,5386600000000,map,-5.1704163671,-1.8962607149,0.0,0.0,0.0,0.81093108697,0.585141668475,0.0238485365794,0.0144428476346,0.0,0.0,0.0,0.0,0.0144428476346,0.329828365943,0.0,0.0,0.0,0.0,0.0,0.0,0.0,0.0,0.0,0.0,0.0,0.0,0.0,0.0,0.0,0.0,0.0,0.0,0.0,0.0,0.0,0.0,0.0,0.0,0.0,0.0,0.0,0.0166582291318
1720044881040087198,86,5386720000000,map,-5.2077074674,-1.80803602862,0.0,0.0,0.0,0.746826775227,0.665018622148,0.0219154649375,0.00432490505652,0.0,0.0,0.0,0.0,0.00432490505652,0.338646257861,0.0,0.0,0.0,0.0,0.0,0.0,0.0,0.0,0.0,0.0,0.0,0.0,0.0,0.0,0.0,0.0,0.0,0.0,0.0,0.0,0.0,0.0,0.0,0.0,0.0,0.0,0.0,0.0138764389821
1720044881348205923,87,5387020000000,map,-5.20434708302,-1.57381875239,0.0,0.0,0.0,0.682996186387,0.73042193928,0.0219527809322,0.0139912064978,0.0,0.0,0.0,0.0,0.0139912064978,0.323222576988,0.0,0.0,0.0,0.0,0.0,0.0,0.0,0.0,0.0,0.0,0.0,0.0,0.0,0.0,0.0,0.0,0.0,0.0,0.0,0.0,0.0,0.0,0.0,0.0,0.0,0.0,0.0,0.0135235422566
1720044881588046085,88,5387300000000,map,-5.1800377115,-1.35025001827,0.0,0.0,0.0,0.683599948051,0.729856911336,0.0255079279268,0.0202372659096,0.0,0.0,0.0,0.0,0.0202372659096,0.314013850193,0.0,0.0,0.0,0.0,0.0,0.0,0.0,0.0,0.0,0.0,0.0,0.0,0.0,0.0,0.0,0.0,0.0,0.0,0.0,0.0,0.0,0.0,0.0,0.0,0.0,0.0,0.0,0.0132392245731
1720044882050214063,89,5387760000000,map,-5.18016035552,-1.13061718517,0.0,0.0,0.0,0.731553163977,0.681784400141,0.0307997810877,0.0270795065379,0.0,0.0,0.0,0.0,0.0270795065379,0.276823456047,0.0,0.0,0.0,0.0,0.0,0.0,0.0,0.0,0.0,0.0,0.0,0.0,0.0,0.0,0.0,0.0,0.0,0.0,0.0,0.0,0.0,0.0,0.0,0.0,0.0,0.0,0.0,0.0125980884631
1720044882320276974,90,5388020000000,map,-5.21981028359,-0.943742887028,0.0,0.0,0.0,0.728594920478,0.684944845848,0.032353112878,0.0281661345585,0.0,0.0,0.0,0.0,0.0281661345585,0.254551156294,0.0,0.0,0.0,0.0,0.0,0.0,0.0,0.0,0.0,0.0,0.0,0.0,0.0,0.0,0.0,0.0,0.0,0.0,0.0,0.0,0.0,0.0,0.0,0.0,0.0,0.0,0.0,0.010935213478
1720044882748119380,91,5388440000000,map,-5.22620843448,-0.720670271256,0.0,0.0,0.0,0.71601872324,0.698081075499,0.0337124960044,0.029669368212,0.0,0.0,0.0,0.0,0.029669368212,0.240267390061,0.0,0.0,0.0,0.0,0.0,0.0,0.0,0.0,0.0,0.0,0.0,0.0,0.0,0.0,0.0,0.0,0.0,0.0,0.0,0.0,0.0,0.0,0.0,0.0,0.0,0.0,0.0,0.00968832948221
1720044883030759221,92,5388740000000,map,-5.23202753779,-0.506028168392,0.0,0.0,0.0,0.701479014025,0.712690109993,0.0314073230642,0.0295005290151,0.0,0.0,0.0,0.0,0.0295005290151,0.215321593056,0.0,0.0,0.0,0.0,0.0,0.0,0.0,0.0,0.0,0.0,0.0,0.0,0.0,0.0,0.0,0.0,0.0,0.0,0.0,0.0,0.0,0.0,0.0,0.0,0.0,0.0,0.0,0.00821363172522
1720044883211878720,93,5388920000000,map,-5.21967606035,-0.337390217572,0.0,0.0,0.0,0.627234870092,0.778830159753,0.0296138500889,0.0287657688069,0.0,0.0,0.0,0.0,0.0287657688069,0.204404309282,0.0,0.0,0.0,0.0,0.0,0.0,0.0,0.0,0.0,0.0,0.0,0.0,0.0,0.0,0.0,0.0,0.0,0.0,0.0,0.0,0.0,0.0,0.0,0.0,0.0,0.0,0.0,0.00757747097068
1720044883347888376,94,5389060000000,map,-5.18574493983,-0.251134224825,0.0,0.0,0.0,0.546795505832,0.837266191125,0.0273191482109,0.0194445759791,0.0,0.0,0.0,0.0,0.0194445759791,0.176811607387,0.0,0.0,0.0,0.0,0.0,0.0,0.0,0.0,0.0,0.0,0.0,0.0,0.0,0.0,0.0,0.0,0.0,0.0,0.0,0.0,0.0,0.0,0.0,0.0,0.0,0.0,0.0,0.00646023183644
1720044883719995970,95,5389420000000,map,-5.04834912016,-0.00251180466414,0.0,0.0,0.0,0.511797040681,0.85910638989,0.0261308579584,0.0176790532216,0.0,0.0,0.0,0.0,0.0176790532216,0.159979847353,0.0,0.0,0.0,0.0,0.0,0.0,0.0,0.0,0.0,0.0,0.0,0.0,0.0,0.0,0.0,0.0,0.0,0.0,0.0,0.0,0.0,0.0,0.0,0.0,0.0,0.0,0.0,0.00664181305409
1720044883950421652,96,5389660000000,map,-4.95296486231,0.14361453369,0.0,0.0,0.0,0.417062190901,0.908877950509,0.0275164788855,0.0112641069078,0.0,0.0,0.0,0.0,0.0112641069078,0.123610085578,0.0,0.0,0.0,0.0,0.0,0.0,0.0,0.0,0.0,0.0,0.0,0.0,0.0,0.0,0.0,0.0,0.0,0.0,0.0,0.0,0.0,0.0,0.0,0.0,0.0,0.0,0.0,0.00581909501633
1720044885450485224,97,5391160000000,map,-4.72167119231,0.388316130641,0.0,0.0,0.0,0.392728701376,0.919654373727,0.0358602789991,0.0172984035748,0.0,0.0,0.0,0.0,0.0172984035748,0.126609425085,0.0,0.0,0.0,0.0,0.0,0.0,0.0,0.0,0.0,0.0,0.0,0.0,0.0,0.0,0.0,0.0,0.0,0.0,0.0,0.0,0.0,0.0,0.0,0.0,0.0,0.0,0.0,0.00749493887462
1720044885836097533,98,5391520000000,map,-4.47853367179,0.63187687078,0.0,0.0,0.0,0.389201060588,0.921152829034,0.0357362629889,0.00972225589499,0.0,0.0,0.0,0.0,0.00972225589499,0.111286909689,0.0,0.0,0.0,0.0,0.0,0.0,0.0,0.0,0.0,0.0,0.0,0.0,0.0,0.0,0.0,0.0,0.0,0.0,0.0,0.0,0.0,0.0,0.0,0.0,0.0,0.0,0.0,0.00798269148434
1720044886167105870,99,5391860000000,map,-4.25190460808,0.830761199618,0.0,0.0,0.0,0.394060018346,0.919084708795,0.0389284834013,0.00252358460337,0.0,0.0,0.0,0.0,0.00252358460337,0.0987590575008,0.0,0.0,0.0,0.0,0.0,0.0,0.0,0.0,0.0,0.0,0.0,0.0,0.0,0.0,0.0,0.0,0.0,0.0,0.0,0.0,0.0,0.0,0.0,0.0,0.0,0.0,0.0,0.00841140765039
1720044886515882600,100,5392220000000,map,-4.02873798909,1.08473171442,0.0,0.0,0.0,0.418526760682,0.908204465191,0.0450437465979,0.000609177394907,0.0,0.0,0.0,0.0,0.000609177394907,0.09555314707,0.0,0.0,0.0,0.0,0.0,0.0,0.0,0.0,0.0,0.0,0.0,0.0,0.0,0.0,0.0,0.0,0.0,0.0,0.0,0.0,0.0,0.0,0.0,0.0,0.0,0.0,0.0,0.00905616453246
1720044886879868611,101,5392580000000,map,-3.82012148459,1.34422439084,0.0,0.0,0.0,0.462147787616,0.886802921963,0.0454187801703,0.00108044089051,0.0,0.0,0.0,0.0,0.00108044089051,0.0831822324016,0.0,0.0,0.0,0.0,0.0,0.0,0.0,0.0,0.0,0.0,0.0,0.0,0.0,0.0,0.0,0.0,0.0,0.0,0.0,0.0,0.0,0.0,0.0,0.0,0.0,0.0,0.0,0.00840795326001
1720044887236152147,102,5392920000000,map,-3.65062170255,1.60566193206,0.0,0.0,0.0,0.51348554443,0.858098243595,0.0590071643308,0.00780595197054,0.0,0.0,0.0,0.0,0.00780595197054,0.0692511433646,0.0,0.0,0.0,0.0,0.0,0.0,0.0,0.0,0.0,0.0,0.0,0.0,0.0,0.0,0.0,0.0,0.0,0.0,0.0,0.0,0.0,0.0,0.0,0.0,0.0,0.0,0.0,0.00872858080555
1720044887876135071,103,5393580000000,map,-3.52235628808,1.88863516702,0.0,0.0,0.0,0.603599691214,0.797287534561,0.0746666142604,0.0105901379368,0.0,0.0,0.0,0.0,0.0105901379368,0.076908386178,0.0,0.0,0.0,0.0,0.0,0.0,0.0,0.0,0.0,0.0,0.0,0.0,0.0,0.0,0.0,0.0,0.0,0.0,0.0,0.0,0.0,0.0,0.0,0.0,0.0,0.0,0.0,0.010144260144
1720044888052214804,104,5393740000000,map,-3.51618672837,2.01565060921,0.0,0.0,0.0,0.692062163541,0.721837905485,0.0677598720188,0.0123674471525,0.0,0.0,0.0,0.0,0.0123674471525,0.0558086128673,0.0,0.0,0.0,0.0,0.0,0.0,0.0,0.0,0.0,0.0,0.0,0.0,0.0,0.0,0.0,0.0,0.0,0.0,0.0,0.0,0.0,0.0,0.0,0.0,0.0,0.0,0.0,0.00998133715637
1720044888170423498,105,5393880000000,map,-3.53674666838,2.11477850618,0.0,0.0,0.0,0.76763653129,0.640885446729,0.0708731466569,0.0195495983886,0.0,0.0,0.0,0.0,0.0195495983886,0.05588574374,0.0,0.0,0.0,0.0,0.0,0.0,0.0,0.0,0.0,0.0,0.0,0.0,0.0,0.0,0.0,0.0,0.0,0.0,0.0,0.0,0.0,0.0,0.0,0.0,0.0,0.0,0.0,0.010057008492
1720044888310905197,106,5394020000000,map,-3.56874073407,2.15224664878,0.0,0.0,0.0,0.830345045551,0.557249589798,0.0688269273801,0.0204834432713,0.0,0.0,0.0,0.0,0.0204834432713,0.0557835659591,0.0,0.0,0.0,0.0,0.0,0.0,0.0,0.0,0.0,0.0,0.0,0.0,0.0,0.0,0.0,0.0,0.0,0.0,0.0,0.0,0.0,0.0,0.0,0.0,0.0,0.0,0.0,0.00993206574972
1720044888648310450,107,5394360000000,map,-3.67985772215,2.37409005634,0.0,0.0,0.0,0.850105734634,0.526612039306,0.0800789074727,0.0276862136336,0.0,0.0,0.0,0.0,0.0276862136336,0.0550134656153,0.0,0.0,0.0,0.0,0.0,0.0,0.0,0.0,0.0,0.0,0.0,0.0,0.0,0.0,0.0,0.0,0.0,0.0,0.0,0.0,0.0,0.0,0.0,0.0,0.0,0.0,0.0,0.0104179697131
1720044888944279532,108,5394640000000,map,-3.77083830447,2.59316335581,0.0,0.0,0.0,0.791543265656,0.611113130766,0.0957515198272,0.0332642718502,0.0,0.0,0.0,0.0,0.0332642718502,0.0587371275101,0.0,0.0,0.0,0.0,0.0,0.0,0.0,0.0,0.0,0.0,0.0,0.0,0.0,0.0,0.0,0.0,0.0,0.0,0.0,0.0,0.0,0.0,0.0,0.0,0.0,0.0,0.0,0.0119541069433
1720044889111218948,109,5394820000000,map,-3.80216476524,2.64219304067,0.0,0.0,0.0,0.728791205726,0.684735991793,0.0903161325807,0.0159511086098,0.0,0.0,0.0,0.0,0.0159511086098,0.0477951741841,0.0,0.0,0.0,0.0,0.0,0.0,0.0,0.0,0.0,0.0,0.0,0.0,0.0,0.0,0.0,0.0,0.0,0.0,0.0,0.0,0.0,0.0,0.0,0.0,0.0,0.0,0.0,0.0115305572372
1720044889329074804,110,5395020000000,map,-3.79706138239,2.82008315319,0.0,0.0,0.0,0.651917412864,0.758289975408,0.135917748486,0.0390007177776,0.0,0.0,0.0,0.0,0.0390007177776,0.0604290392611,0.0,0.0,0.0,0.0,0.0,0.0,0.0,0.0,0.0,0.0,0.0,0.0,0.0,0.0,0.0,0.0,0.0,0.0,0.0,0.0,0.0,0.0,0.0,0.0,0.0,0.0,0.0,0.0155635494151
1720044889464802085,111,5395160000000,map,-3.77090168084,2.95636578547,0.0,0.0,0.0,0.566049423305,0.824371306134,0.151898439292,0.0460155388571,0.0,0.0,0.0,0.0,0.0460155388571,0.0598668988335,0.0,0.0,0.0,0.0,0.0,0.0,0.0,0.0,0.0,0.0,0.0,0.0,0.0,0.0,0.0,0.0,0.0,0.0,0.0,0.0,0.0,0.0,0.0,0.0,0.0,0.0,0.0,0.0157887016697
1720044889600577635,112,5395280000000,map,-3.67993533184,3.05997044609,0.0,0.0,0.0,0.469568238129,0.882896182878,0.177681233797,0.0619856681421,0.0,0.0,0.0,0.0,0.0619856681421,0.0684122113315,0.0,0.0,0.0,0.0,0.0,0.0,0.0,0.0,0.0,0.0,0.0,0.0,0.0,0.0,0.0,0.0,0.0,0.0,0.0,0.0,0.0,0.0,0.0,0.0,0.0,0.0,0.0,0.0160976134277
1720044889697472572,113,5395400000000,map,-3.5307352706,3.16757580554,0.0,0.0,0.0,0.35087259317,0.936423207403,0.240798710241,0.0897589628007,0.0,0.0,0.0,0.0,0.0897589628007,0.0878860363673,0.0,0.0,0.0,0.0,0.0,0.0,0.0,0.0,0.0,0.0,0.0,0.0,0.0,0.0,0.0,0.0,0.0,0.0,0.0,0.0,0.0,0.0,0.0,0.0,0.0,0.0,0.0,0.0200538098851
1720044889837390277,114,5395520000000,map,-3.4271260977,3.21442505739,0.0,0.0,0.0,0.234282836227,0.97216847956,0.253676799609,0.0999814205401,0.0,0.0,0.0,0.0,0.0999814205401,0.0925334851364,0.0,0.0,0.0,0.0,0.0,0.0,0.0,0.0,0.0,0.0,0.0,0.0,0.0,0.0,0.0,0.0,0.0,0.0,0.0,0.0,0.0,0.0,0.0,0.0,0.0,0.0,0.0,0.0198675262905
1720044889930316128,115,5395640000000,map,-3.32528204273,3.26171851362,0.0,0.0,0.0,0.126478807519,0.99196930963,0.282377912167,0.115430541686,0.0,0.0,0.0,0.0,0.115430541686,0.0973909452309,0.0,0.0,0.0,0.0,0.0,0.0,0.0,0.0,0.0,0.0,0.0,0.0,0.0,0.0,0.0,0.0,0.0,0.0,0.0,0.0,0.0,0.0,0.0,0.0,0.0,0.0,0.0,0.0204436736484
1720044890050005140,116,5395760000000,map,-3.22005051105,3.27324664908,0.0,0.0,0.0,0.0135977181801,0.999907546756,0.258365568502,0.0977598770985,0.0,0.0,0.0,0.0,0.0977598770985,0.0820556538818,0.0,0.0,0.0,0.0,0.0,0.0,0.0,0.0,0.0,0.0,0.0,0.0,0.0,0.0,0.0,0.0,0.0,0.0,0.0,0.0,0.0,0.0,0.0,0.0,0.0,0.0,0.0,0.0188161771393
1720044890176681846,117,5395860000000,map,-3.11617944773,3.27297910655,0.0,0.0,0.0,-0.104353841128,0.994540233395,0.277605258482,0.108423601266,0.0,0.0,0.0,0.0,0.108423601266,0.0806724649158,0.0,0.0,0.0,0.0,0.0,0.0,0.0,0.0,0.0,0.0,0.0,0.0,0.0,0.0,0.0,0.0,0.0,0.0,0.0,0.0,0.0,0.0,0.0,0.0,0.0,0.0,0.0,0.0208792027044
1720044890289924687,118,5396000000000,map,-3.08237749366,3.2481467154,0.0,0.0,0.0,-0.205446997288,0.97866824374,0.261181444997,0.0989465254586,0.0,0.0,0.0,0.0,0.0989465254586,0.0689337371407,0.0,0.0,0.0,0.0,0.0,0.0,0.0,0.0,0.0,0.0,0.0,0.0,0.0,0.0,0.0,0.0,0.0,0.0,0.0,0.0,0.0,0.0,0.0,0.0,0.0,0.0,0.0,0.0201783616958
1720044891239665011,119,5396940000000,map,-2.94792526685,3.18780636077,0.0,0.0,0.0,-0.0951530287863,0.995462656815,0.231464421538,0.0804845319296,0.0,0.0,0.0,0.0,0.0804845319296,0.0605036205426,0.0,0.0,0.0,0.0,0.0,0.0,0.0,0.0,0.0,0.0,0.0,0.0,0.0,0.0,0.0,0.0,0.0,0.0,0.0,0.0,0.0,0.0,0.0,0.0,0.0,0.0,0.0,0.0175751152179
1720044891599534274,120,5397280000000,map,-2.84861721265,3.18989835574,0.0,0.0,0.0,0.00309552242539,0.999995208859,0.246658479857,0.0767613143173,0.0,0.0,0.0,0.0,0.0767613143173,0.0516515118041,0.0,0.0,0.0,0.0,0.0,0.0,0.0,0.0,0.0,0.0,0.0,0.0,0.0,0.0,0.0,0.0,0.0,0.0,0.0,0.0,0.0,0.0,0.0,0.0,0.0,0.0,0.0,0.0197190974925
1720044892150827228,121,5397860000000,map,-2.63507069778,3.17969515279,0.0,0.0,0.0,-0.0513679530297,0.99867979523,0.224697272827,0.054111232138,0.0,0.0,0.0,0.0,0.054111232138,0.0420899490907,0.0,0.0,0.0,0.0,0.0,0.0,0.0,0.0,0.0,0.0,0.0,0.0,0.0,0.0,0.0,0.0,0.0,0.0,0.0,0.0,0.0,0.0,0.0,0.0,0.0,0.0,0.0,0.0184110130959
1720044892444113899,122,5398140000000,map,-2.39239443443,3.15213282566,0.0,0.0,0.0,-0.054042010982,0.998538662771,0.206494184897,0.0360111767891,0.0,0.0,0.0,0.0,0.0360111767891,0.0350895150177,0.0,0.0,0.0,0.0,0.0,0.0,0.0,0.0,0.0,0.0,0.0,0.0,0.0,0.0,0.0,0.0,0.0,0.0,0.0,0.0,0.0,0.0,0.0,0.0,0.0,0.0,0.0,0.0172788527727
1720044892710655054,123,5398420000000,map,-2.14166319543,3.12618608228,0.0,0.0,0.0,-0.0520864461366,0.99864257977,0.197992000199,0.0230540315626,0.0,0.0,0.0,0.0,0.0230540315626,0.0315317602051,0.0,0.0,0.0,0.0,0.0,0.0,0.0,0.0,0.0,0.0,0.0,0.0,0.0,0.0,0.0,0.0,0.0,0.0,0.0,0.0,0.0,0.0,0.0,0.0,0.0,0.0,0.0,0.0179077765513
1720044892990067335,124,5398700000000,map,-1.91166548061,3.09713378397,0.0,0.0,0.0,-0.0480576388769,0.998844564157,0.147271030811,0.00640910750269,0.0,0.0,0.0,0.0,0.00640910750269,0.0325583553103,0.0,0.0,0.0,0.0,0.0,0.0,0.0,0.0,0.0,0.0,0.0,0.0,0.0,0.0,0.0,0.0,0.0,0.0,0.0,0.0,0.0,0.0,0.0,0.0,0.0,0.0,0.0,0.0151598272643
1720044893269704662,125,5398980000000,map,-1.64566191309,3.07581149567,0.0,0.0,0.0,-0.0471513742438,0.998887755409,0.131591113418,-0.00195000716456,0.0,0.0,0.0,0.0,-0.00195000716456,0.0364662684225,0.0,0.0,0.0,0.0,0.0,0.0,0.0,0.0,0.0,0.0,0.0,0.0,0.0,0.0,0.0,0.0,0.0,0.0,0.0,0.0,0.0,0.0,0.0,0.0,0.0,0.0,0.0,0.0144727163097
1720044893566700806,126,5399260000000,map,-1.37266492726,3.05888197187,0.0,0.0,0.0,-0.0488347102292,0.998806873763,0.135448341445,-0.0124521559268,0.0,0.0,0.0,0.0,-0.0124521559268,0.03963208614,0.0,0.0,0.0,0.0,0.0,0.0,0.0,0.0,0.0,0.0,0.0,0.0,0.0,0.0,0.0,0.0,0.0,0.0,0.0,0.0,0.0,0.0,0.0,0.0,0.0,0.0,0.0,0.0148384521718
1720044893827596500,127,5399540000000,map,-1.10499586849,3.03184871706,0.0,0.0,0.0,-0.0485115548796,0.998822621411,0.127207177417,-0.0139510176366,0.0,0.0,0.0,0.0,-0.0139510176366,0.0369609712556,0.0,0.0,0.0,0.0,0.0,0.0,0.0,0.0,0.0,0.0,0.0,0.0,0.0,0.0,0.0,0.0,0.0,0.0,0.0,0.0,0.0,0.0,0.0,0.0,0.0,0.0,0.0,0.0137297859001
1720044894120079040,128,5399820000000,map,-0.837932326144,3.00699115388,0.0,0.0,0.0,-0.0464040296703,0.998922752784,0.114765189446,-0.0230052259815,0.0,0.0,0.0,0.0,-0.0230052259815,0.0474704342889,0.0,0.0,0.0,0.0,0.0,0.0,0.0,0.0,0.0,0.0,0.0,0.0,0.0,0.0,0.0,0.0,0.0,0.0,0.0,0.0,0.0,0.0,0.0,0.0,0.0,0.0,0.0,0.0141720265937
1720044894390272762,129,5400100000000,map,-0.587378111996,2.97345751987,0.0,0.0,0.0,-0.0454395793451,0.998967088862,0.10404883335,-0.0312954475024,0.0,0.0,0.0,0.0,-0.0312954475024,0.0470736936582,0.0,0.0,0.0,0.0,0.0,0.0,0.0,0.0,0.0,0.0,0.0,0.0,0.0,0.0,0.0,0.0,0.0,0.0,0.0,0.0,0.0,0.0,0.0,0.0,0.0,0.0,0.0,0.013887180224
1720044894687847949,130,5400380000000,map,-0.348246474133,2.95558143268,0.0,0.0,0.0,-0.0426703218277,0.999089207046,0.0801767281319,-0.028142170054,0.0,0.0,0.0,0.0,-0.028142170054,0.0468562392645,0.0,0.0,0.0,0.0,0.0,0.0,0.0,0.0,0.0,0.0,0.0,0.0,0.0,0.0,0.0,0.0,0.0,0.0,0.0,0.0,0.0,0.0,0.0,0.0,0.0,0.0,0.0,0.0112049057712
1720044895011960591,131,5400660000000,map,-0.114466083618,2.94730615576,0.0,0.0,0.0,-0.0381527448358,0.99927191898,0.0451685308072,-0.0226652345168,0.0,0.0,0.0,0.0,-0.0226652345168,0.0510115731601,0.0,0.0,0.0,0.0,0.0,0.0,0.0,0.0,0.0,0.0,0.0,0.0,0.0,0.0,0.0,0.0,0.0,0.0,0.0,0.0,0.0,0.0,0.0,0.0,0.0,0.0,0.0,0.00854149771873
1720044895267712671,132,5400940000000,map,0.141811973441,2.92131031196,0.0,0.0,0.0,-0.0365591061792,0.999331492427,0.027753676798,-0.0119566223733,0.0,0.0,0.0,0.0,-0.0119566223733,0.040871298168,0.0,0.0,0.0,0.0,0.0,0.0,0.0,0.0,0.0,0.0,0.0,0.0,0.0,0.0,0.0,0.0,0.0,0.0,0.0,0.0,0.0,0.0,0.0,0.0,0.0,0.0,0.0,0.00646382689901
1720044895526911662,133,5401220000000,map,0.394188651367,2.89952389025,0.0,0.0,0.0,-0.0370300635514,0.999314152003,0.0196595050711,-0.00826358256545,0.0,0.0,0.0,0.0,-0.00826358256545,0.0423610649617,0.0,0.0,0.0,0.0,0.0,0.0,0.0,0.0,0.0,0.0,0.0,0.0,0.0,0.0,0.0,0.0,0.0,0.0,0.0,0.0,0.0,0.0,0.0,0.0,0.0,0.0,0.0,0.00566271930238
1720044895789999583,134,5401500000000,map,0.661490764511,2.87335125293,0.0,0.0,0.0,-0.0390583796392,0.999236930352,0.0231337383521,-0.00883630781271,0.0,0.0,0.0,0.0,-0.00883630781271,0.0455080726098,0.0,0.0,0.0,0.0,0.0,0.0,0.0,0.0,0.0,0.0,0.0,0.0,0.0,0.0,0.0,0.0,0.0,0.0,0.0,0.0,0.0,0.0,0.0,0.0,0.0,0.0,0.0,0.00601583205813
1720044896079908737,135,5401780000000,map,0.915793139582,2.87838798277,0.0,0.0,0.0,0.0595144528595,0.998227443973,0.0206582695945,-0.00731579282054,0.0,0.0,0.0,0.0,-0.00731579282054,0.0435311162492,0.0,0.0,0.0,0.0,0.0,0.0,0.0,0.0,0.0,0.0,0.0,0.0,0.0,0.0,0.0,0.0,0.0,0.0,0.0,0.0,0.0,0.0,0.0,0.0,0.0,0.0,0.0,0.00556087553227
1720044896260092157,136,5401960000000,map,1.02215478622,2.8887027217,0.0,0.0,0.0,0.164549214757,0.986368874166,0.0191676205729,-0.00630669799631,0.0,0.0,0.0,0.0,-0.00630669799631,0.0379034309253,0.0,0.0,0.0,0.0,0.0,0.0,0.0,0.0,0.0,0.0,0.0,0.0,0.0,0.0,0.0,0.0,0.0,0.0,0.0,0.0,0.0,0.0,0.0,0.0,0.0,0.0,0.0,0.00516041031187
1720044896488064079,137,5402180000000,map,1.11598689442,2.93383805899,0.0,0.0,0.0,0.262370594981,0.964967186431,0.0260884627557,-0.00948539344366,0.0,0.0,0.0,0.0,-0.00948539344366,0.0501567127146,0.0,0.0,0.0,0.0,0.0,0.0,0.0,0.0,0.0,0.0,0.0,0.0,0.0,0.0,0.0,0.0,0.0,0.0,0.0,0.0,0.0,0.0,0.0,0.0,0.0,0.0,0.0,0.00608858955003
1720044896677343393,138,5402380000000,map,1.2618953591,3.00955928969,0.0,0.0,0.0,0.355392634026,0.934717109975,0.0242762015474,-0.00958837550987,0.0,0.0,0.0,0.0,-0.00958837550987,0.0531157980597,0.0,0.0,0.0,0.0,0.0,0.0,0.0,0.0,0.0,0.0,0.0,0.0,0.0,0.0,0.0,0.0,0.0,0.0,0.0,0.0,0.0,0.0,0.0,0.0,0.0,0.0,0.0,0.00646849364288
1720044896980432821,139,5402680000000,map,1.40326992173,3.15791286258,0.0,0.0,0.0,0.454973199415,0.890505130706,0.0262008662661,-0.0123974188096,0.0,0.0,0.0,0.0,-0.0123974188096,0.0525420563654,0.0,0.0,0.0,0.0,0.0,0.0,0.0,0.0,0.0,0.0,0.0,0.0,0.0,0.0,0.0,0.0,0.0,0.0,0.0,0.0,0.0,0.0,0.0,0.0,0.0,0.0,0.0,0.00687390200701
1720044897516513277,140,5403180000000,map,1.46456096309,3.32529849081,0.0,0.0,0.0,0.545249678247,0.838273695383,0.0306269149807,-0.0154255438131,0.0,0.0,0.0,0.0,-0.0154255438131,0.05018404379,0.0,0.0,0.0,0.0,0.0,0.0,0.0,0.0,0.0,0.0,0.0,0.0,0.0,0.0,0.0,0.0,0.0,0.0,0.0,0.0,0.0,0.0,0.0,0.0,0.0,0.0,0.0,0.00648617150354
1720044897850722200,141,5403560000000,map,1.46327724043,3.34117211581,0.0,0.0,0.0,0.631595086697,0.775298424131,0.0347325969511,-0.017708140331,0.0,0.0,0.0,0.0,-0.017708140331,0.0521131572534,0.0,0.0,0.0,0.0,0.0,0.0,0.0,0.0,0.0,0.0,0.0,0.0,0.0,0.0,0.0,0.0,0.0,0.0,0.0,0.0,0.0,0.0,0.0,0.0,0.0,0.0,0.0,0.00665881854313
1720044900508647388,142,5406180000000,map,1.52174409298,3.6105845133,0.0,0.0,0.0,0.645406546404,0.763839243466,0.0402801111794,-0.022504819823,0.0,0.0,0.0,0.0,-0.022504819823,0.0552430489504,0.0,0.0,0.0,0.0,0.0,0.0,0.0,0.0,0.0,0.0,0.0,0.0,0.0,0.0,0.0,0.0,0.0,0.0,0.0,0.0,0.0,0.0,0.0,0.0,0.0,0.0,0.0,0.00716623653738
1720044900750885768,143,5406460000000,map,1.5480619795,3.89053124094,0.0,0.0,0.0,0.64758108383,0.76199654846,0.0399604143342,-0.0223201851963,0.0,0.0,0.0,0.0,-0.0223201851963,0.0473271558355,0.0,0.0,0.0,0.0,0.0,0.0,0.0,0.0,0.0,0.0,0.0,0.0,0.0,0.0,0.0,0.0,0.0,0.0,0.0,0.0,0.0,0.0,0.0,0.0,0.0,0.0,0.0,0.00656245288879
1720044901184590972,144,5406860000000,map,1.57032281693,3.9925059899,0.0,0.0,0.0,0.563800709875,0.825910866586,0.0464612426737,-0.0255111717046,0.0,0.0,0.0,0.0,-0.0255111717046,0.045446035491,0.0,0.0,0.0,0.0,0.0,0.0,0.0,0.0,0.0,0.0,0.0,0.0,0.0,0.0,0.0,0.0,0.0,0.0,0.0,0.0,0.0,0.0,0.0,0.0,0.0,0.0,0.0,0.00710777851257
1720044903960941256,145,5409640000000,map,1.66627858356,4.29538433766,0.0,0.0,0.0,0.60725539285,0.794506694657,0.0566610815343,-0.0318944341015,0.0,0.0,0.0,0.0,-0.0318944341015,0.0458115523565,0.0,0.0,0.0,0.0,0.0,0.0,0.0,0.0,0.0,0.0,0.0,0.0,0.0,0.0,0.0,0.0,0.0,0.0,0.0,0.0,0.0,0.0,0.0,0.0,0.0,0.0,0.0,0.00698686881308
1720044904250739951,146,5409960000000,map,1.70859806953,4.60118018376,0.0,0.0,0.0,0.580775205438,0.814063978289,0.0462120443683,-0.0216858148585,0.0,0.0,0.0,0.0,-0.0216858148585,0.0351133895956,0.0,0.0,0.0,0.0,0.0,0.0,0.0,0.0,0.0,0.0,0.0,0.0,0.0,0.0,0.0,0.0,0.0,0.0,0.0,0.0,0.0,0.0,0.0,0.0,0.0,0.0,0.0,0.00673093880275
1720044904570453650,147,5410280000000,map,1.82700603312,4.83955771201,0.0,0.0,0.0,0.486274525745,0.87380609154,0.0383910578923,-0.0157829859329,0.0,0.0,0.0,0.0,-0.0157829859329,0.0301441783057,0.0,0.0,0.0,0.0,0.0,0.0,0.0,0.0,0.0,0.0,0.0,0.0,0.0,0.0,0.0,0.0,0.0,0.0,0.0,0.0,0.0,0.0,0.0,0.0,0.0,0.0,0.0,0.00722172674275
1720044904708142080,148,5410400000000,map,1.89685941108,4.93616460051,0.0,0.0,0.0,0.390380348447,0.92065367188,0.0403041384761,-0.0150259175937,0.0,0.0,0.0,0.0,-0.0150259175937,0.0277399145091,0.0,0.0,0.0,0.0,0.0,0.0,0.0,0.0,0.0,0.0,0.0,0.0,0.0,0.0,0.0,0.0,0.0,0.0,0.0,0.0,0.0,0.0,0.0,0.0,0.0,0.0,0.0,0.00683135209859
1720044904810582030,149,5410520000000,map,1.98343278642,5.0059727459,0.0,0.0,0.0,0.279781445113,0.960063718183,0.0296729295595,-0.00976927964807,0.0,0.0,0.0,0.0,-0.00976927964807,0.0280806858669,0.0,0.0,0.0,0.0,0.0,0.0,0.0,0.0,0.0,0.0,0.0,0.0,0.0,0.0,0.0,0.0,0.0,0.0,0.0,0.0,0.0,0.0,0.0,0.0,0.0,0.0,0.0,0.00661479617996
1720044904936170496,150,5410620000000,map,2.05752871532,5.05638197578,0.0,0.0,0.0,0.183515750448,0.983016769612,0.0297127148988,-0.0113994177408,0.0,0.0,0.0,0.0,-0.0113994177408,0.029842720864,0.0,0.0,0.0,0.0,0.0,0.0,0.0,0.0,0.0,0.0,0.0,0.0,0.0,0.0,0.0,0.0,0.0,0.0,0.0,0.0,0.0,0.0,0.0,0.0,0.0,0.0,0.0,0.00641802034395
1720044905068352867,151,5410780000000,map,2.15152398751,5.08483709857,0.0,0.0,0.0,0.0743116399536,0.997235067658,0.0268050595792,-0.0132832788925,0.0,0.0,0.0,0.0,-0.0132832788925,0.0317534306866,0.0,0.0,0.0,0.0,0.0,0.0,0.0,0.0,0.0,0.0,0.0,0.0,0.0,0.0,0.0,0.0,0.0,0.0,0.0,0.0,0.0,0.0,0.0,0.0,0.0,0.0,0.0,0.00661863516168
1720044905227511524,152,5410920000000,map,2.16038190126,5.08909383024,0.0,0.0,0.0,-0.0295774204468,0.999562492393,0.0217468359812,-0.0104563258644,0.0,0.0,0.0,0.0,-0.0104563258643,0.026943896752,0.0,0.0,0.0,0.0,0.0,0.0,0.0,0.0,0.0,0.0,0.0,0.0,0.0,0.0,0.0,0.0,0.0,0.0,0.0,0.0,0.0,0.0,0.0,0.0,0.0,0.0,0.0,0.00620476015391
1720044905357596781,153,5411060000000,map,2.1425681889,5.09705478175,0.0,0.0,0.0,-0.129349072386,0.991599121355,0.0182135616572,-0.00592621590019,0.0,0.0,0.0,0.0,-0.00592621590018,0.0207931462751,0.0,0.0,0.0,0.0,0.0,0.0,0.0,0.0,0.0,0.0,0.0,0.0,0.0,0.0,0.0,0.0,0.0,0.0,0.0,0.0,0.0,0.0,0.0,0.0,0.0,0.0,0.0,0.00565378270914
1720044905535920184,154,5411220000000,map,2.14079825146,5.10642110754,0.0,0.0,0.0,-0.226685931001,0.973967909475,0.0177519470446,-0.00427518357257,0.0,0.0,0.0,0.0,-0.00427518357257,0.0164276776639,0.0,0.0,0.0,0.0,0.0,0.0,0.0,0.0,0.0,0.0,0.0,0.0,0.0,0.0,0.0,0.0,0.0,0.0,0.0,0.0,0.0,0.0,0.0,0.0,0.0,0.0,0.0,0.00500525943307
1720044906659991848,155,5412340000000,map,2.42398359018,4.97856951704,0.0,0.0,0.0,-0.195797619408,0.980644325041,0.0178001067666,-0.0058398248309,0.0,0.0,0.0,0.0,-0.0058398248309,0.0207592273548,0.0,0.0,0.0,0.0,0.0,0.0,0.0,0.0,0.0,0.0,0.0,0.0,0.0,0.0,0.0,0.0,0.0,0.0,0.0,0.0,0.0,0.0,0.0,0.0,0.0,0.0,0.0,0.00605377083827
1720044907250092494,156,5412960000000,map,2.70349401321,4.85812797412,0.0,0.0,0.0,-0.208074270537,0.978113029225,0.0159221418979,-0.00348442298689,0.0,0.0,0.0,0.0,-0.00348442298689,0.0235094735575,0.0,0.0,0.0,0.0,0.0,0.0,0.0,0.0,0.0,0.0,0.0,0.0,0.0,0.0,0.0,0.0,0.0,0.0,0.0,0.0,0.0,0.0,0.0,0.0,0.0,0.0,0.0,0.00702020675384
1720044907579923214,157,5413280000000,map,2.97897750795,4.74262850349,0.0,0.0,0.0,-0.213320149438,0.976982350835,0.0149029278181,-0.00140308770746,0.0,0.0,0.0,0.0,-0.00140308770746,0.0251184937884,0.0,0.0,0.0,0.0,0.0,0.0,0.0,0.0,0.0,0.0,0.0,0.0,0.0,0.0,0.0,0.0,0.0,0.0,0.0,0.0,0.0,0.0,0.0,0.0,0.0,0.0,0.0,0.0072970531181
1720044907930349728,158,5413640000000,map,3.27000421312,4.61000514025,0.0,0.0,0.0,-0.201941383669,0.979397609534,0.0149800674191,-0.0010638026273,0.0,0.0,0.0,0.0,-0.00106380262729,0.0300256081593,0.0,0.0,0.0,0.0,0.0,0.0,0.0,0.0,0.0,0.0,0.0,0.0,0.0,0.0,0.0,0.0,0.0,0.0,0.0,0.0,0.0,0.0,0.0,0.0,0.0,0.0,0.0,0.00768740478432
1720044908192051595,159,5413900000000,map,3.31579672926,4.58663688878,0.0,0.0,0.0,-0.0957342314291,0.995406930322,0.0167260813868,-0.00101469452824,0.0,0.0,0.0,0.0,-0.00101469452824,0.0354086938127,0.0,0.0,0.0,0.0,0.0,0.0,0.0,0.0,0.0,0.0,0.0,0.0,0.0,0.0,0.0,0.0,0.0,0.0,0.0,0.0,0.0,0.0,0.0,0.0,0.0,0.0,0.0,0.00822920654611
1720044908783921743,160,5414480000000,map,3.59198092834,4.54494148377,0.0,0.0,0.0,-0.0824806957598,0.996592662439,0.0152920840629,0.00026617710029,0.0,0.0,0.0,0.0,0.00026617710029,0.0412449113987,0.0,0.0,0.0,0.0,0.0,0.0,0.0,0.0,0.0,0.0,0.0,0.0,0.0,0.0,0.0,0.0,0.0,0.0,0.0,0.0,0.0,0.0,0.0,0.0,0.0,0.0,0.0,0.00945101878623
1720044909260173018,161,5414940000000,map,3.8639889982,4.47935811609,0.0,0.0,0.0,-0.0308342283342,0.999524512137,0.0143254557761,0.00266886831119,0.0,0.0,0.0,0.0,0.00266886831119,0.0613168359313,0.0,0.0,0.0,0.0,0.0,0.0,0.0,0.0,0.0,0.0,0.0,0.0,0.0,0.0,0.0,0.0,0.0,0.0,0.0,0.0,0.0,0.0,0.0,0.0,0.0,0.0,0.0,0.0108561415127
1720044909530466173,162,5415240000000,map,4.13839490105,4.47837714709,0.0,0.0,0.0,-0.0136038769635,0.999907462984,0.0156858784966,0.00346878401958,0.0,0.0,0.0,0.0,0.00346878401958,0.0620488040972,0.0,0.0,0.0,0.0,0.0,0.0,0.0,0.0,0.0,0.0,0.0,0.0,0.0,0.0,0.0,0.0,0.0,0.0,0.0,0.0,0.0,0.0,0.0,0.0,0.0,0.0,0.0,0.0103249202238
1720044909980061750,163,5415680000000,map,4.39373059832,4.47404559615,0.0,0.0,0.0,0.0495251454543,0.998772877069,0.0153136444464,0.0055934320903,0.0,0.0,0.0,0.0,0.0055934320903,0.0867027147506,0.0,0.0,0.0,0.0,0.0,0.0,0.0,0.0,0.0,0.0,0.0,0.0,0.0,0.0,0.0,0.0,0.0,0.0,0.0,0.0,0.0,0.0,0.0,0.0,0.0,0.0,0.0,0.0115363530636
1720044910250824506,164,5415960000000,map,4.65122185242,4.4895337556,0.0,0.0,0.0,0.0781321394381,0.996943011805,0.0151042905609,0.00666135528357,0.0,0.0,0.0,0.0,0.00666135528357,0.111369900953,0.0,0.0,0.0,0.0,0.0,0.0,0.0,0.0,0.0,0.0,0.0,0.0,0.0,0.0,0.0,0.0,0.0,0.0,0.0,0.0,0.0,0.0,0.0,0.0,0.0,0.0,0.0,0.0120826040747
1720044910510579510,165,5416220000000,map,4.89966371834,4.53067885615,0.0,0.0,0.0,0.0785142896358,0.996912988341,0.0130285460363,0.00674848690645,0.0,0.0,0.0,0.0,0.00674848690645,0.137354443277,0.0,0.0,0.0,0.0,0.0,0.0,0.0,0.0,0.0,0.0,0.0,0.0,0.0,0.0,0.0,0.0,0.0,0.0,0.0,0.0,0.0,0.0,0.0,0.0,0.0,0.0,0.0,0.013029803083
1720044910770793624,166,5416480000000,map,5.14880645246,4.56805674063,0.0,0.0,0.0,0.0788261325136,0.996888379325,0.0131440600704,0.00545509577981,0.0,0.0,0.0,0.0,0.00545509577981,0.15118417427,0.0,0.0,0.0,0.0,0.0,0.0,0.0,0.0,0.0,0.0,0.0,0.0,0.0,0.0,0.0,0.0,0.0,0.0,0.0,0.0,0.0,0.0,0.0,0.0,0.0,0.0,0.0,0.0134360942578
1720044911112088884,167,5416800000000,map,5.3990647101,4.63099268508,0.0,0.0,0.0,0.108374946109,0.994110090008,0.0120851043753,0.00572951136218,0.0,0.0,0.0,0.0,0.00572951136218,0.146930232958,0.0,0.0,0.0,0.0,0.0,0.0,0.0,0.0,0.0,0.0,0.0,0.0,0.0,0.0,0.0,0.0,0.0,0.0,0.0,0.0,0.0,0.0,0.0,0.0,0.0,0.0,0.0,0.0121794522322
1720044911908150698,168,5417600000000,map,5.64926315329,4.80930191223,0.0,0.0,0.0,0.0957508721791,0.995405329741,0.0116875435533,0.00531859260042,0.0,0.0,0.0,0.0,0.00531859260043,0.153575448688,0.0,0.0,0.0,0.0,0.0,0.0,0.0,0.0,0.0,0.0,0.0,0.0,0.0,0.0,0.0,0.0,0.0,0.0,0.0,0.0,0.0,0.0,0.0,0.0,0.0,0.0,0.0,0.0122436595375
1720044912088093677,169,5417780000000,map,5.77111813239,4.81157816704,0.0,0.0,0.0,-0.0129045213206,0.999916733198,0.0115364934266,0.00533006227483,0.0,0.0,0.0,0.0,0.00533006227483,0.158023986275,0.0,0.0,0.0,0.0,0.0,0.0,0.0,0.0,0.0,0.0,0.0,0.0,0.0,0.0,0.0,0.0,0.0,0.0,0.0,0.0,0.0,0.0,0.0,0.0,0.0,0.0,0.0,0.0118291816744
1720044912220091544,170,5417920000000,map,5.90422596483,4.78793621172,0.0,0.0,0.0,-0.130255976922,0.991480398433,0.0121884580722,0.00579320195067,0.0,0.0,0.0,0.0,0.00579320195067,0.160896020979,0.0,0.0,0.0,0.0,0.0,0.0,0.0,0.0,0.0,0.0,0.0,0.0,0.0,0.0,0.0,0.0,0.0,0.0,0.0,0.0,0.0,0.0,0.0,0.0,0.0,0.0,0.0,0.0114821016455
1720044912307938841,171,5418020000000,map,5.98637951806,4.75586163774,0.0,0.0,0.0,-0.239740729034,0.970836949669,0.0118478290158,0.00686780535256,0.0,0.0,0.0,0.0,0.00686780535256,0.175644427845,0.0,0.0,0.0,0.0,0.0,0.0,0.0,0.0,0.0,0.0,0.0,0.0,0.0,0.0,0.0,0.0,0.0,0.0,0.0,0.0,0.0,0.0,0.0,0.0,0.0,0.0,0.0,0.0119121619418
1720044912419900567,172,5418120000000,map,6.0429163584,4.70682468073,0.0,0.0,0.0,-0.337770765288,0.941228404861,0.0112841904166,0.00837303115599,0.0,0.0,0.0,0.0,0.00837303115599,0.163977960247,0.0,0.0,0.0,0.0,0.0,0.0,0.0,0.0,0.0,0.0,0.0,0.0,0.0,0.0,0.0,0.0,0.0,0.0,0.0,0.0,0.0,0.0,0.0,0.0,0.0,0.0,0.0,0.0114243548278
1720044913690823839,173,5419400000000,map,6.2342627647,4.41358648099,0.0,0.0,0.0,-0.382363714099,0.92401189935,0.0149004075538,0.0158237760836,0.0,0.0,0.0,0.0,0.0158237760836,0.153992643371,0.0,0.0,0.0,0.0,0.0,0.0,0.0,0.0,0.0,0.0,0.0,0.0,0.0,0.0,0.0,0.0,0.0,0.0,0.0,0.0,0.0,0.0,0.0,0.0,0.0,0.0,0.0,0.0109026174917
1720044914231950419,174,5419920000000,map,6.4775903575,4.28521742126,0.0,0.0,0.0,-0.320043568403,0.947402825795,0.0172872077824,0.0226962926549,0.0,0.0,0.0,0.0,0.0226962926549,0.156719311843,0.0,0.0,0.0,0.0,0.0,0.0,0.0,0.0,0.0,0.0,0.0,0.0,0.0,0.0,0.0,0.0,0.0,0.0,0.0,0.0,0.0,0.0,0.0,0.0,0.0,0.0,0.0,0.0105165468561
1720044914576997050,175,5420280000000,map,6.72849082599,4.08181473058,0.0,0.0,0.0,-0.314563585065,0.949236404143,0.0211502769478,0.0287458440389,0.0,0.0,0.0,0.0,0.0287458440389,0.161878540817,0.0,0.0,0.0,0.0,0.0,0.0,0.0,0.0,0.0,0.0,0.0,0.0,0.0,0.0,0.0,0.0,0.0,0.0,0.0,0.0,0.0,0.0,0.0,0.0,0.0,0.0,0.0,0.0113159090087
1720044914919720064,176,5420620000000,map,6.98838796873,3.89097512925,0.0,0.0,0.0,-0.31074348403,0.950493812254,0.0222061293457,0.0282848056487,0.0,0.0,0.0,0.0,0.0282848056487,0.139164662521,0.0,0.0,0.0,0.0,0.0,0.0,0.0,0.0,0.0,0.0,0.0,0.0,0.0,0.0,0.0,0.0,0.0,0.0,0.0,0.0,0.0,0.0,0.0,0.0,0.0,0.0,0.0,0.0107888125903
1720044915272368065,177,5420960000000,map,7.25628847205,3.71693977655,0.0,0.0,0.0,-0.304890800285,0.952387316118,0.0283513397919,0.038412241199,0.0,0.0,0.0,0.0,0.038412241199,0.158403722044,0.0,0.0,0.0,0.0,0.0,0.0,0.0,0.0,0.0,0.0,0.0,0.0,0.0,0.0,0.0,0.0,0.0,0.0,0.0,0.0,0.0,0.0,0.0,0.0,0.0,0.0,0.0,0.0117868170728
1720044915610933656,178,5421320000000,map,7.54413933725,3.5279378168,0.0,0.0,0.0,-0.306166016481,0.951978135438,0.0293229908564,0.0361340795526,0.0,0.0,0.0,0.0,0.0361340795526,0.126209832799,0.0,0.0,0.0,0.0,0.0,0.0,0.0,0.0,0.0,0.0,0.0,0.0,0.0,0.0,0.0,0.0,0.0,0.0,0.0,0.0,0.0,0.0,0.0,0.0,0.0,0.0,0.0,0.0107839762145
1720044915940223836,179,5421640000000,map,7.77339968135,3.3308630798,0.0,0.0,0.0,-0.404660396856,0.914467037797,0.0363013346284,0.0392767552691,0.0,0.0,0.0,0.0,0.0392767552691,0.109903761601,0.0,0.0,0.0,0.0,0.0,0.0,0.0,0.0,0.0,0.0,0.0,0.0,0.0,0.0,0.0,0.0,0.0,0.0,0.0,0.0,0.0,0.0,0.0,0.0,0.0,0.0,0.0,0.0111949129604
1720044916120316981,180,5421820000000,map,7.88153336409,3.20718690176,0.0,0.0,0.0,-0.498067191864,0.867138438999,0.0389779719602,0.0451714759692,0.0,0.0,0.0,0.0,0.0451714759692,0.119435252824,0.0,0.0,0.0,0.0,0.0,0.0,0.0,0.0,0.0,0.0,0.0,0.0,0.0,0.0,0.0,0.0,0.0,0.0,0.0,0.0,0.0,0.0,0.0,0.0,0.0,0.0,0.0,0.0124656354466
1720044916731024999,181,5422440000000,map,7.97371611826,2.95625474637,0.0,0.0,0.0,-0.481409196456,0.876495970081,0.0444085225056,0.0460407724646,0.0,0.0,0.0,0.0,0.0460407724646,0.103124770193,0.0,0.0,0.0,0.0,0.0,0.0,0.0,0.0,0.0,0.0,0.0,0.0,0.0,0.0,0.0,0.0,0.0,0.0,0.0,0.0,0.0,0.0,0.0,0.0,0.0,0.0,0.0,0.0115792929279
1720044917367660924,182,5423060000000,map,8.15839861498,2.73880909804,0.0,0.0,0.0,-0.407404509022,0.913247811948,0.0547826023749,0.0580942338156,0.0,0.0,0.0,0.0,0.0580942338156,0.114583565718,0.0,0.0,0.0,0.0,0.0,0.0,0.0,0.0,0.0,0.0,0.0,0.0,0.0,0.0,0.0,0.0,0.0,0.0,0.0,0.0,0.0,0.0,0.0,0.0,0.0,0.0,0.0,0.0123500548705
1720044917650794049,183,5423360000000,map,8.36427117965,2.52472734515,0.0,0.0,0.0,-0.396744060058,0.917929273315,0.0562238164857,0.0588794326967,0.0,0.0,0.0,0.0,0.0588794326967,0.112666329454,0.0,0.0,0.0,0.0,0.0,0.0,0.0,0.0,0.0,0.0,0.0,0.0,0.0,0.0,0.0,0.0,0.0,0.0,0.0,0.0,0.0,0.0,0.0,0.0,0.0,0.0,0.0,0.0115892679319
